{
    "attractions": [
      {"name": "Sigiriya Rock Fortress", "latitude": 7.9569, "longitude": 80.7603},
      {"name": "Temple of the Tooth Relic", "latitude": 7.2936, "longitude": 80.6413},
      {"name": "Yala National Park", "latitude": 6.3614, "longitude": 81.5167},
      {"name": "Ella Rock", "latitude": 6.8667, "longitude": 81.0464},
      {"name": "Dambulla Cave Temple", "latitude": 7.8568, "longitude": 80.6512},
      {"name": "Galle Fort", "latitude": 6.0260, "longitude": 80.2170},
      {"name": "Horton Plains National Park", "latitude": 6.8013, "longitude": 80.8083},
      {"name": "Anuradhapura", "latitude": 8.3114, "longitude": 80.4037},
      {"name": "Polonnaruwa Ancient City", "latitude": 7.9403, "longitude": 81.0188},
      {"name": "Kandy Lake", "latitude": 7.2912, "longitude": 80.6421},
      {"name": "Bentota Beach", "latitude": 6.4211, "longitude": 79.9959},
      {"name": "Nuwara Eliya", "latitude": 6.9697, "longitude": 80.7768},
      {"name": "Mirissa Beach", "latitude": 5.9468, "longitude": 80.4589},
      {"name": "Jaffna", "latitude": 9.6615, "longitude": 80.0255},
      {"name": "Colombo National Museum", "latitude": 6.9107, "longitude": 79.8560},
      {"name": "Trincomalee", "latitude": 8.5711, "longitude": 81.2335},
      {"name": "Udawalawe National Park", "latitude": 6.4389, "longitude": 80.8982},
      {"name": "Weligama Beach", "latitude": 5.9745, "longitude": 80.4287},
      {"name": "Adam's Peak", "latitude": 6.8096, "longitude": 80.4994},
      {"name": "Kalpitiya", "latitude": 8.2329, "longitude": 79.7624},
      {"name": "Sinharaja Forest Reserve", "latitude": 6.4000, "longitude": 80.5000},
      {"name": "Galle Face Green", "latitude": 6.9255, "longitude": 79.8422},
      {"name": "Ambalangoda Mask Museum", "latitude": 6.2355, "longitude": 80.0535},
      {"name": "Hikkaduwa", "latitude": 6.1395, "longitude": 80.1063},
      {"name": "Minneriya National Park", "latitude": 8.0344, "longitude": 80.8522},
      {"name": "Royal Botanical Gardens", "latitude": 7.2720, "longitude": 80.5960},
      {"name": "Ramboda Falls", "latitude": 7.0604, "longitude": 80.6969},
      {"name": "Hummanaya Blowhole", "latitude": 5.9285, "longitude": 80.5610},
      {"name": "Negombo Beach", "latitude": 7.2083, "longitude": 79.8358},
      {"name": "Viharamahadevi Park", "latitude": 6.9146, "longitude": 79.8584},
      {"name": "Koneswaram Temple", "latitude": 8.6111, "longitude": 81.2355},
      {"name": "Dambulla Golden Temple", "latitude": 7.8568, "longitude": 80.6512},
      {"name": "Pinnawala Elephant Orphanage", "latitude": 7.3010, "longitude": 80.3872},
      {"name": "Kandy Botanical Gardens", "latitude": 7.2720, "longitude": 80.5960},
      {"name": "Yapahuwa", "latitude": 7.8186, "longitude": 80.3100},
      {"name": "Tangalle Beach", "latitude": 6.0257, "longitude": 80.7964},
      {"name": "Arugam Bay", "latitude": 6.8404, "longitude": 81.8368},
      {"name": "Uda Walawe", "latitude": 6.4389, "longitude": 80.8982},
      {"name": "Galle Lighthouse", "latitude": 6.0253, "longitude": 80.2169},
      {"name": "Nallur Kandaswamy Temple", "latitude": 9.6726, "longitude": 80.0313},
      {"name": "Mihintale", "latitude": 8.3500, "longitude": 80.5000},
      {"name": "Pinnawala Elephant Sanctuary", "latitude": 7.3010, "longitude": 80.3872},
      {"name": "Haputale", "latitude": 6.7686, "longitude": 80.9597},
      {"name": "Wadduwa Beach", "latitude": 6.6667, "longitude": 79.9167},
      {"name": "Bopath Falls", "latitude": 6.8208, "longitude": 80.3667},
      {"name": "Hela Boowa", "latitude": 7.1817, "longitude": 80.6233},
      {"name": "Kithulgala", "latitude": 6.9897, "longitude": 80.4056},
      {"name": "Diyaluma Falls", "latitude": 6.7333, "longitude": 81.0333},
      {"name": "Galle Fort Ramparts", "latitude": 6.0260, "longitude": 80.2170},
      {"name": "Nuwara Eliya Golf Club", "latitude": 6.9697, "longitude": 80.7768},
      {"name": "Ritigala", "latitude": 8.1167, "longitude": 80.6500},
      {"name": "Kumbuk River", "latitude": 6.2820, "longitude": 81.2980},
      {"name": "Kalutara Temple", "latitude": 6.5854, "longitude": 79.9607},
      {"name": "Diyaluma Falls", "latitude": 6.7333, "longitude": 81.0333}
    ]
  }